{
  "type": "FeatureCollection",
  "features": [
    {
      "id": 1240,
      "type": "Feature",
      "properties": {
        "id": 1240,
        "name": "望风半岛",
        "level": 1
      },
      "geometry": {
        "type": "Point",
        "coordinates": [
          0.7705744521,
          -0.1743584422
        ]
      }
    },
    {
      "id": 1231,
      "type": "Feature",
      "properties": {
        "id": 1231,
        "name": "信仰者村落",
        "level": 1
      },
      "geometry": {
        "type": "Point",
        "coordinates": [
          0.1966041459,
          -0.1573575803
        ]
      }
    },
    {
      "id": 1232,
      "type": "Feature",
      "properties": {
        "id": 1232,
        "name": "拾荒港口",
        "level": 1
      },
      "geometry": {
        "type": "Point",
        "coordinates": [
          0.1742007443,
          -0.3440506902
        ]
      }
    },
    {
      "id": 1233,
      "type": "Feature",
      "properties": {
        "id": 1233,
        "name": "咸水湾",
        "level": 1
      },
      "geometry": {
        "type": "Point",
        "coordinates": [
          -0.241032859,
          -0.3828497057
        ]
      }
    },
    {
      "id": 1234,
      "type": "Feature",
      "properties": {
        "id": 1234,
        "name": "沉船漩涡",
        "level": 1
      },
      "geometry": {
        "type": "Point",
        "coordinates": [
          -0.1975471108,
          -0.5303437433
        ]
      }
    },
    {
      "id": 1235,
      "type": "Feature",
      "properties": {
        "id": 1235,
        "name": "彼得大道",
        "level": 1
      },
      "geometry": {
        "type": "Point",
        "coordinates": [
          0.4885031579,
          -0.6814582192
        ]
      }
    },
    {
      "id": 1236,
      "type": "Feature",
      "properties": {
        "id": 1236,
        "name": "监管区",
        "level": 1
      },
      "geometry": {
        "type": "Point",
        "coordinates": [
          0.6208088484,
          -0.378432167
        ]
      }
    },
    {
      "id": 1238,
      "type": "Feature",
      "properties": {
        "id": 1238,
        "name": "月兔暗港",
        "level": 1
      },
      "geometry": {
        "type": "Point",
        "coordinates": [
          0.9005907454,
          -0.4162841009
        ]
      }
    },
    {
      "id": 1239,
      "type": "Feature",
      "properties": {
        "id": 1239,
        "name": "向日葵海岸",
        "level": 1
      },
      "geometry": {
        "type": "Point",
        "coordinates": [
          1.2050592803,
          -0.2944990527
        ]
      }
    },
    {
      "id": 1230,
      "type": "Feature",
      "properties": {
        "id": 1230,
        "name": "采邑地",
        "level": 1
      },
      "geometry": {
        "type": "Point",
        "coordinates": [
          0.1076191064,
          0.2457551425
        ]
      }
    },
    {
      "id": 1241,
      "type": "Feature",
      "properties": {
        "id": 1241,
        "name": "二叠山丘",
        "level": 1
      },
      "geometry": {
        "type": "Point",
        "coordinates": [
          0.4282530723,
          0.0214886161
        ]
      }
    },
    {
      "id": 1242,
      "type": "Feature",
      "properties": {
        "id": 1242,
        "name": "咕噜咕噜浅滩",
        "level": 1
      },
      "geometry": {
        "type": "Point",
        "coordinates": [
          0.4776263482,
          0.2568337051
        ]
      }
    },
    {
      "id": 1243,
      "type": "Feature",
      "properties": {
        "id": 1243,
        "name": "银蛇河口",
        "level": 1
      },
      "geometry": {
        "type": "Point",
        "coordinates": [
          0.8199476435,
          0.1103605007
        ]
      }
    },
    {
      "id": 1244,
      "type": "Feature",
      "properties": {
        "id": 1244,
        "name": "王国城堡",
        "level": 1
      },
      "geometry": {
        "type": "Point",
        "coordinates": [
          0.9664215406,
          0.3374757094
        ]
      }
    },
    {
      "id": 1245,
      "type": "Feature",
      "properties": {
        "id": 1245,
        "name": "港口驻地",
        "level": 1
      },
      "geometry": {
        "type": "Point",
        "coordinates": [
          1.0294222484,
          -0.0151023359
        ]
      }
    },
    {
      "id": 1246,
      "type": "Feature",
      "properties": {
        "id": 1246,
        "name": "甜水农庄",
        "level": 1
      },
      "geometry": {
        "type": "Point",
        "coordinates": [
          0.2848460391,
          0.5199154654
        ]
      }
    },
    {
      "id": 1247,
      "type": "Feature",
      "properties": {
        "id": 1247,
        "name": "黑水峡",
        "level": 1
      },
      "geometry": {
        "type": "Point",
        "coordinates": [
          0.0511458424,
          0.738790328
        ]
      }
    },
    {
      "id": 1221,
      "type": "Feature",
      "properties": {
        "id": 1221,
        "name": "回填山涧",
        "level": 1
      },
      "geometry": {
        "type": "Point",
        "coordinates": [
          -0.2069879189,
          0.3590819145
        ]
      }
    },
    {
      "id": 1213,
      "type": "Feature",
      "properties": {
        "id": 1213,
        "name": "月牙湖岸",
        "level": 1
      },
      "geometry": {
        "type": "Point",
        "coordinates": [
          -0.6613068963,
          -0.2202817634
        ]
      }
    },
    {
      "id": 1214,
      "type": "Feature",
      "properties": {
        "id": 1214,
        "name": "岚语峰西侧",
        "level": 1
      },
      "geometry": {
        "type": "Point",
        "coordinates": [
          -1.2373240238,
          0.729282611
        ]
      }
    },
    {
      "id": 1215,
      "type": "Feature",
      "properties": {
        "id": 1215,
        "name": "挽风屏障",
        "level": 1
      },
      "geometry": {
        "type": "Point",
        "coordinates": [
          -1.0042602197,
          0.5341922355
        ]
      }
    },
    {
      "id": 1216,
      "type": "Feature",
      "properties": {
        "id": 1216,
        "name": "叽叽喳喳台地",
        "level": 1
      },
      "geometry": {
        "type": "Point",
        "coordinates": [
          -1.2230826457,
          0.4089987136
        ]
      }
    },
    {
      "id": 1217,
      "type": "Feature",
      "properties": {
        "id": 1217,
        "name": "星霜崖地",
        "level": 1
      },
      "geometry": {
        "type": "Point",
        "coordinates": [
          -0.8642440314,
          0.9797924065
        ]
      }
    },
    {
      "id": 1218,
      "type": "Feature",
      "properties": {
        "id": 1218,
        "name": "风眠圣所",
        "level": 1
      },
      "geometry": {
        "type": "Point",
        "coordinates": [
          -0.7521634258,
          0.5506304035
        ]
      }
    },
    {
      "id": 1219,
      "type": "Feature",
      "properties": {
        "id": 1219,
        "name": "圣羽祭台",
        "level": 1
      },
      "geometry": {
        "type": "Point",
        "coordinates": [
          -0.536007488,
          0.8591981113
        ]
      }
    },
    {
      "id": 1220,
      "type": "Feature",
      "properties": {
        "id": 1220,
        "name": "旧飞艇航道",
        "level": 1
      },
      "geometry": {
        "type": "Point",
        "coordinates": [
          -0.46038576,
          0.6181274717
        ]
      }
    },
    {
      "id": 1212,
      "type": "Feature",
      "properties": {
        "id": 1212,
        "name": "商店街周边",
        "level": 1
      },
      "geometry": {
        "type": "Point",
        "coordinates": [
          -0.6173593243,
          -0.514159477
        ]
      }
    },
    {
      "id": 1222,
      "type": "Feature",
      "properties": {
        "id": 1222,
        "name": "恶水沼泽",
        "level": 1
      },
      "geometry": {
        "type": "Point",
        "coordinates": [
          -0.1123354064,
          0.7511185568
        ]
      }
    },
    {
      "id": 1223,
      "type": "Feature",
      "properties": {
        "id": 1223,
        "name": "独角兽领地",
        "level": 1
      },
      "geometry": {
        "type": "Point",
        "coordinates": [
          -0.0699906038,
          0.4807497995
        ]
      }
    },
    {
      "id": 1224,
      "type": "Feature",
      "properties": {
        "id": 1224,
        "name": "轻风山",
        "level": 1
      },
      "geometry": {
        "type": "Point",
        "coordinates": [
          -1.0627927927,
          0.0512160976
        ]
      }
    },
    {
      "id": 1225,
      "type": "Feature",
      "properties": {
        "id": 1225,
        "name": "奥贝斯坦湖",
        "level": 1
      },
      "geometry": {
        "type": "Point",
        "coordinates": [
          -0.8221026424,
          -0.0738585336
        ]
      }
    },
    {
      "id": 1226,
      "type": "Feature",
      "properties": {
        "id": 1226,
        "name": "风息山口",
        "level": 1
      },
      "geometry": {
        "type": "Point",
        "coordinates": [
          -0.5099408953,
          0.1762910071
        ]
      }
    },
    {
      "id": 1227,
      "type": "Feature",
      "properties": {
        "id": 1227,
        "name": "聆风塔地",
        "level": 1
      },
      "geometry": {
        "type": "Point",
        "coordinates": [
          -0.4647459213,
          -0.194728856
        ]
      }
    },
    {
      "id": 1228,
      "type": "Feature",
      "properties": {
        "id": 1228,
        "name": "圣所前哨",
        "level": 1
      },
      "geometry": {
        "type": "Point",
        "coordinates": [
          -0.2120609412,
          0.1196426708
        ]
      }
    },
    {
      "id": 1229,
      "type": "Feature",
      "properties": {
        "id": 1229,
        "name": "晨曦山",
        "level": 1
      },
      "geometry": {
        "type": "Point",
        "coordinates": [
          0.0654161947,
          0.0208441119
        ]
      }
    }
  ]
}
